{"name": "Lingo24",
 "permalink": "lingo24",
 "crunchbase_url": "http://www.crunchbase.com/company/lingo24",
 "homepage_url": "http://www.lingo24.com",
 "blog_url": "http://www.lingo24.com/blogs/company/",
 "blog_feed_url": "http://www.lingo24.com/blogs/company/wp-rss2.php",
 "twitter_username": null,
 "category_code": "public_relations",
 "number_of_employees": 100,
 "founded_year": 2001,
 "founded_month": 9,
 "founded_day": 24,
 "deadpooled_year": null,
 "deadpooled_month": null,
 "deadpooled_day": null,
 "deadpooled_url": null,
 "tag_list": "translation-services, translation-company, localisation, translation-agency, transcreation, first-draft-translation",
 "alias_list": null,
 "email_address": "christian@lingo24.com",
 "phone_number": "+44 (0) 20 7952 7500",
 "description": "Language Translation Service Provider",
 "created_at": "Tue Mar 31 10:31:07 UTC 2009",
 "updated_at": "Mon Apr 19 17:53:08 UTC 2010",
 "overview": "\u003Cp\u003ELingo24 provides language translation services to companies, public sector organisations and translation agencies who wish to communicate across language barriers. \nWith 100 employees around the world and in excess of 4000 translators on its books, the company operates from fixed offices in the UK, Panama and Romania, and home offices in New Zealand and China. It uses proprietary technology and the global location of its employees to operate 24 hours per working day.\u003C/p\u003E",
 "image":
  {"available_sizes":
    [[[150,
       41],
      "assets/images/resized/0003/9835/39835v2-max-150x150.jpg"],
     [[250,
       69],
      "assets/images/resized/0003/9835/39835v2-max-250x250.jpg"],
     [[450,
       125],
      "assets/images/resized/0003/9835/39835v2-max-450x450.jpg"]],
   "attribution": null},
 "products":
  [],
 "relationships":
  [],
 "competitions":
  [],
 "providerships":
  [{"title": "",
    "is_past": false,
    "provider":
     {"name": "Ubiquity Communications",
      "permalink": "ubiquity-communications-2",
      "image":
       {"available_sizes":
         [[[150,
            144],
           "assets/images/resized/0014/8369/148369v1-max-150x150.jpg"],
          [[250,
            240],
           "assets/images/resized/0014/8369/148369v1-max-250x250.jpg"],
          [[250,
            240],
           "assets/images/resized/0014/8369/148369v1-max-450x450.jpg"]],
        "attribution": null}}}],
 "total_money_raised": "$0",
 "funding_rounds":
  [],
 "investments":
  [],
 "acquisition": null,
 "acquisitions":
  [],
 "offices":
  [{"description": "London Office",
    "address1": "131-151 Great Titchfield Street",
    "address2": "",
    "zip_code": "W1W 5BB",
    "city": "London",
    "state_code": null,
    "country_code": "GBR",
    "latitude": 51.518365,
    "longitude": -0.1405204},
   {"description": "Aberdeen Office",
    "address1": "66 Queen's Road",
    "address2": "",
    "zip_code": "AB15 4YE",
    "city": "Aberdeen",
    "state_code": null,
    "country_code": "GBR",
    "latitude": 57.1409474,
    "longitude": -2.1371301},
   {"description": "Edinburgh Office",
    "address1": "1 St Colme Street",
    "address2": "",
    "zip_code": " EH3 6AA",
    "city": "Edinburgh",
    "state_code": null,
    "country_code": "GBR",
    "latitude": 55.953152,
    "longitude": -3.2084985},
   {"description": "Manchester Office",
    "address1": "17 Redhill Street, Ancoats Urban Village ",
    "address2": "",
    "zip_code": "M4 5BA",
    "city": "Manchester",
    "state_code": null,
    "country_code": "GBR",
    "latitude": null,
    "longitude": null},
   {"description": "New York Office",
    "address1": "410 Park Avenue 15th Floor, Suite 1530",
    "address2": "",
    "zip_code": "NY 10022",
    "city": "New York",
    "state_code": "NY",
    "country_code": "USA",
    "latitude": 43.0480695,
    "longitude": -78.8807985},
   {"description": "Paris Office",
    "address1": "3 rue du Tintoret",
    "address2": "",
    "zip_code": "92600 Asni\u00c3\u00a8res sur Seine",
    "city": "Paris",
    "state_code": null,
    "country_code": "FRA",
    "latitude": 48.9061567,
    "longitude": 2.2680061},
   {"description": "Berlin Office",
    "address1": "Suite No 109 Markgrafenstr. 56",
    "address2": "",
    "zip_code": "10117",
    "city": "Berlin",
    "state_code": null,
    "country_code": "DEU",
    "latitude": 52.508712,
    "longitude": 13.3940446},
   {"description": "Cham Office",
    "address1": "Postfach 1347",
    "address2": "",
    "zip_code": "93403",
    "city": "Cham",
    "state_code": null,
    "country_code": "DEU",
    "latitude": null,
    "longitude": null},
   {"description": "Amsterdam Office",
    "address1": "Keizersgracht 633",
    "address2": "",
    "zip_code": "1017 DS",
    "city": "Amsterdam",
    "state_code": null,
    "country_code": "NLD",
    "latitude": 52.3637923,
    "longitude": 4.8941897},
   {"description": "Stockholm Office",
    "address1": "1412 Frejgatan 13 ",
    "address2": "",
    "zip_code": "114 79",
    "city": "Stockholm ",
    "state_code": null,
    "country_code": "SWE",
    "latitude": 59.3482426,
    "longitude": 18.0602981},
   {"description": "Panam\u00c3\u00a1 Office",
    "address1": "Casa 131A, Calle Amarilis, Albrook, Ancon ",
    "address2": "",
    "zip_code": "",
    "city": "Panam\u00c3\u00a1",
    "state_code": null,
    "country_code": "PAN",
    "latitude": null,
    "longitude": null},
   {"description": "Christchurch Office",
    "address1": "PO Box 29389, Fendalton",
    "address2": "",
    "zip_code": "8030",
    "city": "Christchurch",
    "state_code": null,
    "country_code": "NZL",
    "latitude": -43.523976,
    "longitude": 172.613193},
   {"description": "Tokyo Office",
    "address1": "Kitasenju Sky Heights 701, 31-2 Senju-Asahicho, Adachi-ku",
    "address2": "",
    "zip_code": "",
    "city": "Tokyo",
    "state_code": null,
    "country_code": "JPN",
    "latitude": null,
    "longitude": null},
   {"description": "Timisoara Office",
    "address1": "Cezar Boliac, Nr 26",
    "address2": "",
    "zip_code": "300316",
    "city": "Timisoara",
    "state_code": null,
    "country_code": "ROM",
    "latitude": null,
    "longitude": null},
   {"description": "Shanghai Office",
    "address1": "627, Lane 3671, North Zhongshan Road, Putuo District",
    "address2": "",
    "zip_code": "200062",
    "city": "Shanghai",
    "state_code": null,
    "country_code": "CHN",
    "latitude": null,
    "longitude": null}],
 "milestones":
  [],
 "ipo": null,
 "video_embeds":
  [],
 "screenshots":
  [],
 "external_links":
  [{"external_url": "http://www.pressandjournal.co.uk/Article.aspx/1059845?UserKey=",
    "title": "Talking the Language of Business"},
   {"external_url": "http://us.ft.com/ftgateway/superpage.ft?news_id=fto030320061248249503\u0026page=2",
    "title": "Financial Times profile of Lingo24"},
   {"external_url": "http://www.shell-livewire.org/business-library/case-studies/lingo24",
    "title": "Shell Livewire Case Study of Lingo24"},
   {"external_url": "http://www.smarta.com/Inspiration/video-diaries/Lingo-24-Part-1",
    "title": "Smarta Video on Lingo24"}]}